Lat,Lon,Title,Code,Date,Personnes décédées (cumul),jour,mois
47.425673873656244,4.7714997100743615,Côte-d'Or,21,2020-05-02,218,2,5
47.16579196560603,6.3626638301480805,Doubs,25,2020-05-02,118,2,5
46.729472171089704,5.697415885127798,Jura,39,2020-05-02,46,2,5
47.115749125879404,3.50405091784385,Nièvre,58,2020-05-02,23,2,5
47.64118494206776,6.087000679964537,Haute-Saône,70,2020-05-02,70,2,5
46.64492672218591,4.54288214285374,Saône-et-Loire,71,2020-05-02,160,2,5
47.840415193284855,3.5633099736470286,Yonne,89,2020-05-02,64,2,5
47.63196993309085,6.928299074513746,Territoire de Belfort,90,2020-05-02,151,2,5
