Lat,Lon,Title,code,Décès,date,population,rapport
47.42567387365624,4.771499710074361,Côte-d'Or,21,83,7 avril 2020,532 886,"0,00015575564"
47.16579196560603,6.362663830148081,Doubs,25,58,7 avril 2020,539 449,"0,0001075171147"
46.729472171089704,5.697415885127799,Jura,39,18,7 avril 2020,257 849,"0,00006980829866"
47.1157491258794,3.50405091784385,Nièvre,58,7,7 avril 2020,199 596,"0,0000350708431"
47.64118494206776,6.087000679964536,Haute-Saône,70,45,7 avril 2020,233 194,"0,0001929723749"
46.64492672218591,4.54288214285374,Saône-et-Loire,71,74,7 avril 2020,547 824,"0,0001350798797"
47.840415193284855,3.563309973647029,Yonne,89,17,7 avril 2020,332 096,"0,00005119001734"
47.63196993309085,6.928299074513747,Territoire de Belfort,90,94,7 avril 20,140 145,"0,0006707338828"