Lat,Lon,Title,code,Décès,date,population,rapport
47.42567387365624,4.771499710074361,Côte-d'Or,21,76,6 avril 2020,532 886,"0,0001426196222"
47.16579196560603,6.362663830148081,Doubs,25,51,6 avril 2020,539 449,"0,00009454091119"
46.729472171089704,5.697415885127799,Jura,39,17,6 avril 2020,257 849,"0,00006593005984"
47.1157491258794,3.50405091784385,Nièvre,58,6,6 avril 2020,199 596,"0,00003006072266"
47.64118494206776,6.087000679964536,Haute-Saône,70,44,6 avril 2020,233 194,"0,0001886840999"
46.64492672218591,4.54288214285374,Saône-et-Loire,71,69,6 avril 2020,547 824,"0,0001259528608"
47.840415193284855,3.563309973647029,Yonne,89,15,6 avril 2020,332 096,"0,00004516766236"
47.63196993309085,6.928299074513747,Territoire de Belfort,90,89,6 avril 2020,140 145,"0,0006350565486"