Lat,Lon,Title,Code,Date,Personnes décédées (cumul),jour,mois
47.425673873656244,4.7714997100743615,Côte-d'Or,21,2020-07-03,249,3,7
47.16579196560603,6.3626638301480805,Doubs,25,2020-07-03,151,3,7
46.729472171089704,5.697415885127798,Jura,39,2020-07-03,60,3,7
47.115749125879404,3.50405091784385,Nièvre,58,2020-07-03,27,3,7
47.64118494206776,6.087000679964537,Haute-Saône,70,2020-07-03,77,3,7
46.64492672218591,4.54288214285374,Saône-et-Loire,71,2020-07-03,201,3,7
47.840415193284855,3.5633099736470286,Yonne,89,2020-07-03,90,3,7
47.63196993309085,6.928299074513746,Territoire de Belfort,90,2020-07-03,187,3,7
