Lat,Lon,Title,Code,Date,Personnes décédées (cumul),jour,mois
47.425673873656244,4.7714997100743615,Côte-d'Or,21,2020-07-16,250,16,7
47.16579196560603,6.3626638301480805,Doubs,25,2020-07-16,151,16,7
46.729472171089704,5.697415885127798,Jura,39,2020-07-16,60,16,7
47.115749125879404,3.50405091784385,Nièvre,58,2020-07-16,27,16,7
47.64118494206776,6.087000679964537,Haute-Saône,70,2020-07-16,77,16,7
46.64492672218591,4.54288214285374,Saône-et-Loire,71,2020-07-16,201,16,7
47.840415193284855,3.5633099736470286,Yonne,89,2020-07-16,94,16,7
47.63196993309085,6.928299074513746,Territoire de Belfort,90,2020-07-16,200,16,7
